var testData={max: 93, data:[    
    {
    "place_name":"San Francisco, CA",
        "lat":"37.7749295",
        "lng":"-122.4194155",
        "place_description":"description", "place_style":"cross", count: 67
    },
    {
    "place_name":"Austin, TX",
        "lat":"30.267153",
        "lng":"-97.7430608",
        "place_description":"description", "place_style":"cross", count: 36
    },
    {
    "place_name":"Chicago, IL",
        "lat":"41.8781136",
        "lng":"-87.6297982",
        "place_description":"description", "place_style":"cross", count: 23
    },
    {
    "place_name":"Oakland, CA",
        "lat":"37.8043637",
        "lng":"-122.2711137",
        "place_description":"description", "place_style":"cross", count: 23
    },
    {
    "place_name":"Philadelphia, PA",
        "lat":"39.952335",
        "lng":"-75.163789",
        "place_description":"description", "place_style":"cross", count: 23
    },
    {
    "place_name":"New York, NY",
        "lat":"40.7143528",
        "lng":"-74.0059731",
        "place_description":"description", "place_style":"cross", count: 16
    },
    {
    "place_name":"Boston, MA",
        "lat":"42.3584308",
        "lng":"-71.0597732",
        "place_description":"description", "place_style":"cross", count: 15
    },
    {
    "place_name":"Raleigh, NC",
        "lat":"35.772096",
        "lng":"-78.6386145",
        "place_description":"description", "place_style":"cross", count: 15
    },
    {
    "place_name":"New York City",
        "lat":"40.7143528",
        "lng":"-74.0059731",
        "place_description":"description", "place_style":"cross", count: 12
    },
    {
    "place_name":"Seattle, WA",
        "lat":"47.6062095",
        "lng":"-122.3320708",
        "place_description":"description", "place_style":"cross", count: 12
    },
    {
    "place_name":"Kansas City, MO",
        "lat":"39.0997265",
        "lng":"-94.5785667",
        "place_description":"description", "place_style":"cross", count: 11
    },
    {
    "place_name":"Los Angeles, CA",
        "lat":"34.0522342",
        "lng":"-118.2436849",
        "place_description":"description", "place_style":"cross", count: 11
    },
    {
    "place_name":"Norfolk, VA",
        "lat":"36.8507689",
        "lng":"-76.2858726",
        "place_description":"description", "place_style":"cross", count: 10
    },
    {
    "place_name":"Washington, D.C.",
        "lat":"38.8951118",
        "lng":"-77.0363658",
        "place_description":"description", "place_style":"cross", count: 9
    },
    {
    "place_name":"Detroit, MI",
        "lat":"42.331427",
        "lng":"-83.0457538",
        "place_description":"description", "place_style":"cross", count: 8
    },
    {
    "place_name":"Madison,WI",
        "lat":"43.0730517",
        "lng":"-89.4012302",
        "place_description":"description", "place_style":"cross", count: 8
    },
    {
    "place_name":"Pittsburgh, PA",
        "lat":"40.4406248",
        "lng":"-79.9958864",
        "place_description":"description", "place_style":"cross", count: 7
    },
    {
    "place_name":"Tulsa, OK",
        "lat":"36.1539816",
        "lng":"-95.992775",
        "place_description":"description", "place_style":"cross", count: 7
    },
    {
    "place_name":"Brooklyn, NY",
        "lat":"40.6528762",
        "lng":"-73.959494",
        "place_description":"description", "place_style":"cross", count: 6
    },
    {
    "place_name":"Minneapolis, MN",
        "lat":"44.983334",
        "lng":"-93.26667",
        "place_description":"description", "place_style":"cross", count: 6
    },
    {
    "place_name":"Salt Lake City, UT",
        "lat":"40.7607793",
        "lng":"-111.8910474",
        "place_description":"description", "place_style":"cross", count: 6
    },
    {
    "place_name":"Atlanta, GA",
        "lat":"33.7489954",
        "lng":"-84.3879824",
        "place_description":"description", "place_style":"cross", count: 5
    },
    {
    "place_name":"Indianapolis, IN",
        "lat":"39.7685155",
        "lng":"-86.1580736",
        "place_description":"description", "place_style":"cross", count: 5
    },
    {
    "place_name":"Louisville, KY",
        "lat":"38.2526647",
        "lng":"-85.7584557",
        "place_description":"description", "place_style":"cross", count: 5
    },
    {
    "place_name":"New Orleans, LA",
        "lat":"29.9510658",
        "lng":"-90.0715323",
        "place_description":"description", "place_style":"cross", count: 5
    },
    {
    "place_name":"Portland, OR",
        "lat":"45.5234515",
        "lng":"-122.6762071",
        "place_description":"description", "place_style":"cross", count: 5
    },
    {
    "place_name":"Richmond, VA",
        "lat":"37.5407246",
        "lng":"-77.4360481",
        "place_description":"description", "place_style":"cross", count: 5
    },
    {
    "place_name":"San Diego, CA",
        "lat":"32.7153292",
        "lng":"-117.1572551",
        "place_description":"description", "place_style":"cross", count: 5
    },
    {
    "place_name":"Washington, DC",
        "lat":"38.8951118",
        "lng":"-77.0363658",
        "place_description":"description", "place_style":"cross", count: 5
    },
    {
    "place_name":"Ann Arbor, MI",
        "lat":"42.2808256",
        "lng":"-83.7430378",
        "place_description":"description", "place_style":"cross", count: 4
    },
    {
    "place_name":"Dallas, TX",
        "lat":"32.802955",
        "lng":"-96.769923",
        "place_description":"description", "place_style":"cross", count: 4
    },
    {
    "place_name":"Denver, CO",
        "lat":"39.7391536",
        "lng":"-104.9847034",
        "place_description":"description", "place_style":"cross", count: 4
    },
    {
    "place_name":"Honolulu, HI",
        "lat":"21.3069444",
        "lng":"-157.8583333",
        "place_description":"description", "place_style":"cross", count: 4
    },
    {
    "place_name":"Houston, TX",
        "lat":"29.7601927",
        "lng":"-95.3693896",
        "place_description":"description", "place_style":"cross", count: 4
    },
    {
    "place_name":"San Jose, CA",
        "lat":"-",
        "lng":"-",
        "place_description":"description", "place_style":"cross", count: 4
    },
    {
    "place_name":"Virginia Beach, VA",
        "lat":"36.8529263",
        "lng":"-75.977985",
        "place_description":"description", "place_style":"cross", count: 4
    },
    {
    "place_name":"Albuquerque, NM",
        "lat":"35.0844909",
        "lng":"-106.6511367",
        "place_description":"description", "place_style":"cross", count: 3
    },
    {
    "place_name":"Anchorage, AK",
        "lat":"61.2180556",
        "lng":"-149.9002778",
        "place_description":"description", "place_style":"cross", count: 3
    },
    {
    "place_name":"Asheville, NC",
        "lat":"-",
        "lng":"-",
        "place_description":"description", "place_style":"cross", count: 3
    },
    {
    "place_name":"Baltimore, MD",
        "lat":"39.2903848",
        "lng":"-76.6121893",
        "place_description":"description", "place_style":"cross", count: 3
    },
    {
    "place_name":"Las Vegas, NV",
        "lat":"36.255123",
        "lng":"-115.2383485",
        "place_description":"description", "place_style":"cross", count: 3
    },
    {
    "place_name":"Lexington, KY",
        "lat":"38.0405837",
        "lng":"-84.5037164",
        "place_description":"description", "place_style":"cross", count: 3
    },
    {
    "place_name":"Miami, FL",
        "lat":"25.7889689",
        "lng":"-80.2264393",
        "place_description":"description", "place_style":"cross", count: 3
    },
    {
    "place_name":"Phoenix, AZ",
        "lat":"33.4483771",
        "lng":"-112.0740373",
        "place_description":"description", "place_style":"cross", count: 3
    },
    {
    "place_name":"Tucson, AZ",
        "lat":"32.2217429",
        "lng":"-110.926479",
        "place_description":"description", "place_style":"cross", count: 3
    },
    {
    "place_name":"Akron, OH",
        "lat":"41.0814447",
        "lng":"-81.5190053",
        "place_description":"description", "place_style":"cross", count: 2
    },
    {
    "place_name":"Alexandria, VA",
        "lat":"38.8048355",
        "lng":"-77.0469214",
        "place_description":"description", "place_style":"cross", count: 2
    },
    {
    "place_name":"Arlington, VA",
        "lat":"38.8799697",
        "lng":"-77.1067698",
        "place_description":"description", "place_style":"cross", count: 2
    },
    {
    "place_name":"Bend, OR",
        "lat":"44.0581728",
        "lng":"-121.3153096",
        "place_description":"description", "place_style":"cross", count: 2
    },
    {
    "place_name":"Berkeley, CA",
        "lat":"-",
        "lng":"-",
        "place_description":"description", "place_style":"cross", count: 2
    },
    {
    "place_name":"Bloomington, IN",
        "lat":"39.165325",
        "lng":"-86.5263857",
        "place_description":"description", "place_style":"cross", count: 2
    },
    {
    "place_name":"Boulder, CO",
        "lat":"40.0149856",
        "lng":"-105.2705456",
        "place_description":"description", "place_style":"cross", count: 2
    },
    {
    "place_name":"Champaign, Illinois",
        "lat":"40.1164204",
        "lng":"-88.2433829",
        "place_description":"description", "place_style":"cross", count: 2
    },
    {
    "place_name":"Chattanooga, TN",
        "lat":"35.0456297",
        "lng":"-85.3096801",
        "place_description":"description", "place_style":"cross", count: 2
    },
    {
    "place_name":"Cincinnati, OH",
        "lat":"39.1031182",
        "lng":"-84.5120196",
        "place_description":"description", "place_style":"cross", count: 2
    },
    {
    "place_name":"Cleveland, OH",
        "lat":"41.4994954",
        "lng":"-81.6954088",
        "place_description":"description", "place_style":"cross", count: 2
    },
    {
    "place_name":"Columbus, Ohio",
        "lat":"39.9611755",
        "lng":"-82.9987942",
        "place_description":"description", "place_style":"cross", count: 2
    },
    {
    "place_name":"Fargo, ND",
        "lat":"46.8771863",
        "lng":"-96.7898034",
        "place_description":"description", "place_style":"cross", count: 2
    },
    {
    "place_name":"Fort lauderdale, fl",
        "lat":"26.1223084",
        "lng":"-80.1433786",
        "place_description":"description", "place_style":"cross", count: 2
    },
    {
    "place_name":"Hartford, Connecticut",
        "lat":"41.7637111",
        "lng":"-72.6850932",
        "place_description":"description", "place_style":"cross", count: 2
    },
    {
    "place_name":"Hoboken, NJ",
        "lat":"40.7439905",
        "lng":"-74.0323626",
        "place_description":"description", "place_style":"cross", count: 2
    },
    {
    "place_name":"Jacksonville, FL",
        "lat":"30.3321838",
        "lng":"-81.655651",
        "place_description":"description", "place_style":"cross", count: 2
    },
    {
    "place_name":"Nashville, TN",
        "lat":"36.1666667",
        "lng":"-86.7833333",
        "place_description":"description", "place_style":"cross", count: 2
    },
    {
    "place_name":"Orlando, FL",
        "lat":"28.5383355",
        "lng":"-81.3792365",
        "place_description":"description", "place_style":"cross", count: 2
    },
    {
    "place_name":"Portland, ME",
        "lat":"43.661471",
        "lng":"-70.2553259",
        "place_description":"description", "place_style":"cross", count: 2
    },
    {
    "place_name":"Reno, NV",
        "lat":"39.5296329",
        "lng":"-119.8138027",
        "place_description":"description", "place_style":"cross", count: 2
    },
    {
    "place_name":"Rochester, NY",
        "lat":"43.16103",
        "lng":"-77.6109219",
        "place_description":"description", "place_style":"cross", count: 2
    },
    {
    "place_name":"Sacramento, CA",
        "lat":"38.5815719",
        "lng":"-121.4943996",
        "place_description":"description", "place_style":"cross", count: 2
    },
    {
    "place_name":"Santa Barbara, CA",
        "lat":"34.4208305",
        "lng":"-119.6981901",
        "place_description":"description", "place_style":"cross", count: 2
    },
    {
    "place_name":"Savannah, GA",
        "lat":"32.0835407",
        "lng":"-81.0998342",
        "place_description":"description", "place_style":"cross", count: 2
    },
    {
    "place_name":"St Petersburg, FL",
        "lat":"27.7730556",
        "lng":"-82.64",
        "place_description":"description", "place_style":"cross", count: 2
    },
    {
    "place_name":"Tampa, FL",
        "lat":"27.950575",
        "lng":"-82.4571776",
        "place_description":"description", "place_style":"cross", count: 2
    },
    {
    "place_name":"Trenton, NJ",
        "lat":"-",
        "lng":"-",
        "place_description":"description", "place_style":"cross", count: 2
    },
    {
    "place_name":"Anacortes, WA",
        "lat":"48.5126045",
        "lng":"-122.6126718",
        "place_description":"description", "place_style":"cross", count: 1
    },
    {
    "place_name":"Appleton, WI",
        "lat":"44.2619309",
        "lng":"-88.4153847",
        "place_description":"description", "place_style":"cross", count: 1

    },
    {
    "place_name":"Baton Rouge, LA",
        "lat":"30.4582829",
        "lng":"-91.1403196",
        "place_description":"description", "place_style":"cross", count: 1
    },
    {
    "place_name":"Beaufort, SC",
        "lat":"32.4315813",
        "lng":"-80.6698286",
        "place_description":"description", "place_style":"cross", count: 1
    },
    {
    "place_name":"Bel Air, MD",
        "lat":"39.5359406",
        "lng":"-76.3482931",
        "place_description":"description", "place_style":"cross", count: 1
    },
    {
    "place_name":"Biloxi, MS",
        "lat":"30.3960318",
        "lng":"-88.8853078",
        "place_description":"description", "place_style":"cross", count: 1
    },
    {
    "place_name":"Birmingham, AL",
        "lat":"33.5206608",
        "lng":"-86.80249",
        "place_description":"description", "place_style":"cross", count: 1
    },
    {
    "place_name":"Boise, ID",
        "lat":"43.612631",
        "lng":"-116.211076",
        "place_description":"description", "place_style":"cross", count: 1
    },
    {
    "place_name":"Burlington, VT",
        "lat":"44.4758825",
        "lng":"-73.212072",
        "place_description":"description", "place_style":"cross", count: 1
    },
    {
    "place_name":"Champaign-Urbana, IL",
        "lat":"40.1105875",
        "lng":"-88.2072697",
        "place_description":"description", "place_style":"cross", count: 1
    },
    {
    "place_name":"Charleston, WV",
        "lat":"38.3498195",
        "lng":"-81.6326234",
        "place_description":"description", "place_style":"cross", count: 1
    },
    {
    "place_name":"Chennai,TN",
        "lat":"13.060422",
        "lat":"80.249583",
        "place_description":"description", "place_style":"cross", count: 1
    },
    {
    "place_name":"Duluth, MN",
        "lat":"46.7866719",
        "lng":"-92.1004852",
        "place_description":"description", "place_style":"cross", count: 1
    },
    {
    "place_name":"Eugene, OR",
        "lat":"44.0520691",
        "lng":"-123.0867536",
        "place_description":"description", "place_style":"cross", count: 1
    },
    {
    "place_name":"Fort Wayne, IN",
        "lat":"41.079273",
        "lng":"-85.1393513",
        "place_description":"description", "place_style":"cross", count: 1
    },
    {
    "place_name":"Fort Worth, TX",
        "lat":"32.725409",
        "lng":"-97.3208496",
        "place_description":"description", "place_style":"cross", count: 1
    },
    {
    "place_name":"Gaithersburg, MD",
        "lat":"39.1434406",
        "lng":"-77.2013705",
        "place_description":"description", "place_style":"cross", count: 1
    },
    {
    "place_name":"Grand Rapids, MI",
        "lat":"42.9633599",
        "lng":"-85.6680863",
        "place_description":"description", "place_style":"cross", count: 1
    },
    {
    "place_name":"Hawaii County",
        "lat":"19.5429151",
        "lng":"-155.6658568",
        "place_description":"description", "place_style":"cross", count: 1
    },
    {
    "place_name":"Holland, MI",
        "lat":"42.7875235",
        "lng":"-86.1089301",
        "place_description":"description", "place_style":"cross", count: 1
    },
    {
    "place_name":"Independence, Oregon",
        "lat":"44.8512305",
        "lng":"-123.1867655",
        "place_description":"description", "place_style":"cross", count: 1
    },
    {
    "place_name":"Ithaca, NY",
        "lat":"42.4439614",
        "lng":"-76.5018807",
        "place_description":"description", "place_style":"cross", count: 1
    },
    {
    "place_name":"Lansing, MI",
        "lat":"42.732535",
        "lng":"-84.5555347",
        "place_description":"description", "place_style":"cross", count: 1
    },
    {
    "place_name":"Lone Tree, CO",
        "lat":"-",
        "lng":"-",
        "place_description":"description", "place_style":"cross", count: 1
    },
    {
    "place_name":"Long Island, NY",
        "lat":"40.7891424",
        "lng":"-73.1349605",
        "place_description":"description", "place_style":"cross", count: 1
    },
    {
    "place_name":"Loudoun, VA",
        "lat":"39.076767",
        "lng":"-77.6536125",
        "place_description":"description", "place_style":"cross", count: 1
    },
    {
    "place_name":"Macon, GA",
        "lat":"32.8406946",
        "lng":"-83.6324022",
        "place_description":"description", "place_style":"cross", count: 1
    },
    {
    "place_name":"Memphis, TN",
        "lat":"35.1495343",
        "lng":"-90.0489801",
        "place_description":"description", "place_style":"cross", count: 1
    },
    {
    "place_name":"Missoula, MT",
        "lat":"46.8605189",
        "lng":"-114.019501",
        "place_description":"description", "place_style":"cross", count: 1
    },
    {
    "place_name":"Monroe, LA",
        "lat":"32.5093109",
        "lng":"-92.1193012",
        "place_description":"description", "place_style":"cross", count: 1
    },
    {
    "place_name":"Montclair, NJ",
        "lat":"40.8259007",
        "lng":"-74.2090053",
        "place_description":"description", "place_style":"cross", count: 1
    },
    {
    "place_name":"Natal, RN",
        "lat":"-5.7944785",
        "lng":"-35.2109531",
        "place_description":"description", "place_style":"cross", count: 1
    },
    {
    "place_name":"New Haven, CT",
        "lat":"41.3081527",
        "lng":"-72.9281577",
        "place_description":"description", "place_style":"cross", count: 1
    },
    {
    "place_name":"Niagara Falls, Ontario, Canada",
        "lat":"43.0895577",
        "lng":"-79.0849436",
        "place_description":"description", "place_style":"cross", count: 1
    },
    {
    "place_name":"Oak Park, IL",
        "lat":"41.8850317",
        "lng":"-87.7845025",
        "place_description":"description", "place_style":"cross", count: 1
    },
    {
    "place_name":"Omaha, NE",
        "lat":"41.2523634",
        "lng":"-95.9979883",
        "place_description":"description", "place_style":"cross", count: 1
    },
    {
    "place_name":"Parkersburg, WV",
        "lat":"39.2667418",
        "lng":"-81.5615135",
        "place_description":"description", "place_style":"cross", count: 1
    },
    {
    "place_name":"Pleasant Hill, IA",
        "lat":"41.5873903",
        "lng":"-93.5196138",
        "place_description":"description", "place_style":"cross", count: 1
    },
    {
    "place_name":"Providence, RI",
        "lat":"41.8239891",
        "lng":"-71.4128343",
        "place_description":"description", "place_style":"cross", count: 1
    },
    {
    "place_name":"Redwood City, CA",
        "lat":"37.4852152",
        "lng":"-122.2363548",
        "place_description":"description", "place_style":"cross", count: 1
    },
    {
    "place_name":"Reston, VA",
        "lat":"38.9586307",
        "lng":"-77.3570028",
        "place_description":"description", "place_style":"cross", count: 1
    },
    {
    "place_name":"Rockville, MD",
        "lat":"39.0839973",
        "lng":"-77.1527578",
        "place_description":"description", "place_style":"cross", count: 1
    },
    {
    "place_name":"San Antonio, TX",
        "lat":"29.4241219",
        "lng":"-98.4936282",
        "place_description":"description", "place_style":"cross", count: 1
    },
    {
    "place_name":"Santa Cruz, CA",
        "lat":"36.9741171",
        "lng":"-122.0307963",
        "place_description":"description", "place_style":"cross", count: 1
    },
    {
    "place_name":"Simi Valley, CA",
        "lat":"34.2694474",
        "lng":"-118.781482",
        "place_description":"description", "place_style":"cross", count: 1
    },
    {
    "place_name":"Spartanburg, SC",
        "lat":"34.9495672",
        "lng":"-81.9320482",
        "place_description":"description", "place_style":"cross", count: 1
    },
    {
    "place_name":"St. Paul, MN",
        "lat":"44.9537029",
        "lng":"-93.0899578",
        "place_description":"description", "place_style":"cross", count: 1
    },
    {
    "place_name":"Syracuse, NY",
        "lat":"43.0481221",
        "lng":"-76.1474244",
        "place_description":"description", "place_style":"cross", count: 1
    },
    {
    "place_name":"Topeka, KS",
        "lat":"39.0558235",
        "lng":"-95.6890185",
        "place_description":"description", "place_style":"cross", count: 1
    },
    {
    "place_name":"Tyler, TX",
        "lat":"32.3512601",
        "lng":"-95.3010624",
        "place_description":"description", "place_style":"cross", count: 1
    },
    {
    "place_name":"Whitewater, WI",
        "lat":"42.8336205",
        "lng":"-88.7323272",
        "place_description":"description", "place_style":"cross", count: 1
    },
    {
    "place_name":"Banff, Alberta, Canada",
        "lat":"51.1780556",
        "lng":"-115.5719444",
        "place_description":"description", "place_style":"cross", count: 1
    },
    {
    "place_name":"BANGLADESH",
        "lat":"23.684994",
        "lng":"90.356331",
        "place_description":"description", "place_style":"cross", count: 1
            },
    {
    "place_name":"Copenhagen",
        "lat":"55.6760968",
        "lng":"12.5683371",
        "place_description":"description", "place_style":"cross", count: 1
    },
    {
    "place_name":"india",
        "lat":"20.593684",
        "lng":"78.96288",
        "place_description":"description", "place_style":"cross", count: 1
    },
    {
    "place_name":"Ireland",
        "lat":"53.41291",
        "lng":"-8.24389",
        "place_description":"description", "place_style":"cross", count: 1
    },
    {
    "place_name":"Switzerland",
        "lat":"46.818188",
        "lng":"8.227512",
        "place_description":"description", "place_style":"cross", count: 1}
]}

